{
	"generated_at": "2026-04-23T09:08:12.704Z",
	"cell_degrees": 0.25,
	"total_cells": 74,
	"cells": [
		{
			"id": "10.75_106.50",
			"lat": 10.88,
			"lng": 106.63,
			"places": 378,
			"visits": 612,
			"firstDate": "2014-02-14",
			"lastDate": "2026-04-19",
			"city": "Thuận An",
			"country": "VN",
			"display": "Phường Tân Thới Hiệp, Thuận An, Ho Chi Minh City, Vietnam"
		},
		{
			"id": "10.50_106.50",
			"lat": 10.63,
			"lng": 106.63,
			"places": 46,
			"visits": 85,
			"firstDate": "2017-11-04",
			"lastDate": "2026-04-11",
			"city": "Tây Ninh Province",
			"country": "VN",
			"display": "Xã Phước Lý, Tây Ninh Province, Vietnam"
		},
		{
			"id": "10.25_105.75",
			"lat": 10.38,
			"lng": 105.88,
			"places": 30,
			"visits": 52,
			"firstDate": "2017-10-21",
			"lastDate": "2026-02-15",
			"city": "Đồng Tháp Province",
			"country": "VN",
			"display": "Xã Mỹ Lợi, Đồng Tháp Province, Vietnam"
		},
		{
			"id": "21.00_105.75",
			"lat": 21.13,
			"lng": 105.88,
			"places": 17,
			"visits": 38,
			"firstDate": "2022-10-06",
			"lastDate": "2026-04-17",
			"city": "Hà Nội",
			"country": "VN",
			"display": "Dong Anh Commune, Hà Nội, Vietnam"
		},
		{
			"id": "11.75_108.25",
			"lat": 11.88,
			"lng": 108.38,
			"places": 11,
			"visits": 17,
			"firstDate": "2018-05-27",
			"lastDate": "2025-09-01",
			"city": "Lâm Đồng Province",
			"country": "VN",
			"display": "Xã Nam Ban Lâm Hà, Lâm Đồng Province, Vietnam"
		},
		{
			"id": "10.00_105.75",
			"lat": 10.13,
			"lng": 105.88,
			"places": 9,
			"visits": 16,
			"firstDate": "2017-10-21",
			"lastDate": "2024-08-15",
			"city": "Vĩnh Long Province",
			"country": "VN",
			"display": "Xã Song Phú, Vĩnh Long Province, Vietnam"
		},
		{
			"id": "12.00_109.00",
			"lat": 12.13,
			"lng": 109.13,
			"places": 10,
			"visits": 16,
			"firstDate": "2024-08-31",
			"lastDate": "2025-05-31",
			"city": "Cam Đức",
			"country": "VN",
			"display": "Xã Cam Lâm, Cam Đức, Khánh Hòa Province, 57600, Vietnam"
		},
		{
			"id": "10.75_106.75",
			"lat": 10.88,
			"lng": 106.88,
			"places": 14,
			"visits": 14,
			"firstDate": "2017-12-10",
			"lastDate": "2026-02-23",
			"city": "Đồng Nai City",
			"country": "VN",
			"display": "Phường Long Hưng, Đồng Nai City, Vietnam"
		},
		{
			"id": "10.75_108.00",
			"lat": 10.88,
			"lng": 108.13,
			"places": 4,
			"visits": 11,
			"firstDate": "2023-10-27",
			"lastDate": "2024-06-17",
			"city": "Lâm Đồng Province",
			"country": "VN",
			"display": "Lâm Đồng Province, Vietnam"
		},
		{
			"id": "10.00_103.75",
			"lat": 10.13,
			"lng": 103.88,
			"places": 6,
			"visits": 11,
			"firstDate": "2024-02-14",
			"lastDate": "2024-02-17",
			"city": "Khaet Preah Sihanouk",
			"country": "KH",
			"display": "Khaet Preah Sihanouk, Cambodia"
		},
		{
			"id": "15.75_108.25",
			"lat": 15.88,
			"lng": 108.38,
			"places": 5,
			"visits": 9,
			"firstDate": "2023-09-02",
			"lastDate": "2023-09-03",
			"city": "Hội An Đông Ward",
			"country": "VN",
			"display": "Hội An Đông Ward, Đà Nẵng, 51313, Vietnam"
		},
		{
			"id": "13.75_100.50",
			"lat": 13.88,
			"lng": 100.63,
			"places": 7,
			"visits": 9,
			"firstDate": "2024-03-29",
			"lastDate": "2026-03-04",
			"city": "Bangkok",
			"country": "TH",
			"display": "Bang Khen District, Bangkok, 10220, Thailand"
		},
		{
			"id": "13.50_100.50",
			"lat": 13.63,
			"lng": 100.63,
			"places": 8,
			"visits": 9,
			"firstDate": "2026-03-04",
			"lastDate": "2026-03-06",
			"city": "Samut Prakan Province",
			"country": "TH",
			"display": "Bang Phli District, Samut Prakan Province, 10540, Thailand"
		},
		{
			"id": "11.50_109.00",
			"lat": 11.63,
			"lng": 109.13,
			"places": 6,
			"visits": 8,
			"firstDate": "2018-02-21",
			"lastDate": "2025-05-01",
			"city": "Khánh Hòa Province",
			"country": "VN",
			"display": "Xã Vĩnh Hải, Khánh Hòa Province, Vietnam"
		},
		{
			"id": "51.25_-0.50",
			"lat": 51.38,
			"lng": -0.38,
			"places": 4,
			"visits": 8,
			"firstDate": "2018-03-26",
			"lastDate": "2018-03-27",
			"city": "England",
			"country": "GB",
			"display": "Surrey, England, United Kingdom"
		},
		{
			"id": "10.25_103.75",
			"lat": 10.38,
			"lng": 103.88,
			"places": 4,
			"visits": 8,
			"firstDate": "2024-02-17",
			"lastDate": "2024-02-18",
			"city": "An Giang Province",
			"country": "VN",
			"display": "An Giang Province, Vietnam"
		},
		{
			"id": "10.25_106.75",
			"lat": 10.38,
			"lng": 106.88,
			"places": 5,
			"visits": 7,
			"firstDate": "2018-05-25",
			"lastDate": "2018-07-28",
			"city": "Ho Chi Minh City",
			"country": "VN",
			"display": "Xã Cần Giờ, Ho Chi Minh City, Vietnam"
		},
		{
			"id": "10.00_106.25",
			"lat": 10.13,
			"lng": 106.38,
			"places": 5,
			"visits": 7,
			"firstDate": "2018-08-31",
			"lastDate": "2023-07-22",
			"city": "Vĩnh Long Province",
			"country": "VN",
			"display": "Xã Đồng Khởi, Vĩnh Long Province, Vietnam"
		},
		{
			"id": "16.00_108.00",
			"lat": 16.13,
			"lng": 108.13,
			"places": 5,
			"visits": 7,
			"firstDate": "2023-08-31",
			"lastDate": "2023-09-02",
			"city": "Đà Nẵng",
			"country": "VN",
			"display": "Đà Nẵng, Vietnam"
		},
		{
			"id": "12.00_109.25",
			"lat": 12.13,
			"lng": 109.38,
			"places": 2,
			"visits": 7,
			"firstDate": "2024-09-02",
			"lastDate": "2025-05-31",
			"city": "Khánh Hòa Province",
			"country": "VN",
			"display": "Khánh Hòa Province, Vietnam"
		},
		{
			"id": "10.50_107.25",
			"lat": 10.63,
			"lng": 107.38,
			"places": 3,
			"visits": 5,
			"firstDate": "2017-11-24",
			"lastDate": "2017-11-25",
			"city": "Ho Chi Minh City",
			"country": "VN",
			"display": "Xã Hòa Hội, Ho Chi Minh City, Vietnam"
		},
		{
			"id": "51.50_-0.25",
			"lat": 51.63,
			"lng": -0.13,
			"places": 5,
			"visits": 5,
			"firstDate": "2018-03-27",
			"lastDate": "2018-04-02",
			"city": "Greater London",
			"country": "GB",
			"display": "Greater London, England, United Kingdom"
		},
		{
			"id": "10.50_105.75",
			"lat": 10.63,
			"lng": 105.88,
			"places": 4,
			"visits": 5,
			"firstDate": "2018-10-27",
			"lastDate": "2022-07-10",
			"city": "Tây Ninh Province",
			"country": "VN",
			"display": "Xã Hậu Thạnh, Tây Ninh Province, Vietnam"
		},
		{
			"id": "16.25_107.50",
			"lat": 16.38,
			"lng": 107.63,
			"places": 3,
			"visits": 5,
			"firstDate": "2018-11-21",
			"lastDate": "2023-09-05",
			"city": "Huế",
			"country": "VN",
			"display": "Thanh Thủy Ward, Huế, Vietnam"
		},
		{
			"id": "16.25_107.75",
			"lat": 16.38,
			"lng": 107.88,
			"places": 2,
			"visits": 5,
			"firstDate": "2023-09-04",
			"lastDate": "2023-09-04",
			"city": "Vinh Lộc Commune",
			"country": "VN",
			"display": "Vinh Lộc Commune, Huế, Vietnam"
		},
		{
			"id": "10.25_106.25",
			"lat": 10.38,
			"lng": 106.38,
			"places": 4,
			"visits": 4,
			"firstDate": "2017-09-02",
			"lastDate": "2024-10-12",
			"city": "Đồng Tháp Province",
			"country": "VN",
			"display": "Phường Mỹ Phong, Đồng Tháp Province, Vietnam"
		},
		{
			"id": "11.00_108.50",
			"lat": 11.13,
			"lng": 108.63,
			"places": 3,
			"visits": 4,
			"firstDate": "2018-02-20",
			"lastDate": "2018-02-21",
			"city": "Lâm Đồng Province",
			"country": "VN",
			"display": "Lâm Đồng Province, Vietnam"
		},
		{
			"id": "11.50_107.75",
			"lat": 11.63,
			"lng": 107.88,
			"places": 1,
			"visits": 4,
			"firstDate": "2019-04-27",
			"lastDate": "2019-04-27",
			"city": "Lâm Đồng Province",
			"country": "VN",
			"display": "Xã Bảo Lâm 1, Lâm Đồng Province, Vietnam"
		},
		{
			"id": "1.25_103.75",
			"lat": 1.38,
			"lng": 103.88,
			"places": 4,
			"visits": 4,
			"firstDate": "2025-04-10",
			"lastDate": "2025-04-11",
			"city": "Singapore",
			"country": "SG",
			"display": "Hougang, North-east Region, Singapore"
		},
		{
			"id": "22.25_114.00",
			"lat": 22.38,
			"lng": 114.13,
			"places": 3,
			"visits": 4,
			"firstDate": "2026-03-25",
			"lastDate": "2026-03-26",
			"city": "Hong Kong",
			"country": "CN",
			"display": "Tsuen Wan District, New Territories, Hong Kong, China"
		},
		{
			"id": "11.00_106.25",
			"lat": 11.13,
			"lng": 106.38,
			"places": 3,
			"visits": 3,
			"firstDate": "2018-01-27",
			"lastDate": "2018-01-28",
			"city": "Tây Ninh Province",
			"country": "VN",
			"display": "Xã Hưng Thuận, Tây Ninh Province, Vietnam"
		},
		{
			"id": "53.50_-2.25",
			"lat": 53.63,
			"lng": -2.13,
			"places": 2,
			"visits": 3,
			"firstDate": "2018-03-30",
			"lastDate": "2018-03-31",
			"city": "England",
			"country": "GB",
			"display": "Greater Manchester, England, United Kingdom"
		},
		{
			"id": "10.25_107.00",
			"lat": 10.38,
			"lng": 107.13,
			"places": 3,
			"visits": 3,
			"firstDate": "2018-04-26",
			"lastDate": "2022-11-05",
			"city": "Ho Chi Minh City",
			"country": "VN",
			"display": "Phường Phước Thắng, Ho Chi Minh City, 78000, Vietnam"
		},
		{
			"id": "16.00_108.25",
			"lat": 16.13,
			"lng": 108.38,
			"places": 3,
			"visits": 3,
			"firstDate": "2018-11-23",
			"lastDate": "2018-11-24",
			"city": "Đà Nẵng",
			"country": "VN",
			"display": "Đà Nẵng, Vietnam"
		},
		{
			"id": "13.50_100.75",
			"lat": 13.63,
			"lng": 100.88,
			"places": 1,
			"visits": 3,
			"firstDate": "2024-03-31",
			"lastDate": "2024-03-31",
			"city": "Samut Prakan Province",
			"country": "TH",
			"display": "Bang Bo District, Samut Prakan Province, Thailand"
		},
		{
			"id": "9.75_105.50",
			"lat": 9.88,
			"lng": 105.63,
			"places": 2,
			"visits": 3,
			"firstDate": "2024-05-25",
			"lastDate": "2024-05-25",
			"city": "Cần Thơ",
			"country": "VN",
			"display": "Xã Tân Bình, Cần Thơ, Vietnam"
		},
		{
			"id": "42.25_-83.25",
			"lat": 42.38,
			"lng": -83.13,
			"places": 1,
			"visits": 2,
			"firstDate": "2014-01-27",
			"lastDate": "2014-01-27",
			"city": "Michigan",
			"country": "US",
			"display": "Wayne County, Michigan, United States"
		},
		{
			"id": "11.00_107.00",
			"lat": 11.13,
			"lng": 107.13,
			"places": 1,
			"visits": 2,
			"firstDate": "2014-01-30",
			"lastDate": "2014-01-30",
			"city": "Đồng Nai City",
			"country": "VN",
			"display": "Xã Thống Nhất, Đồng Nai City, Vietnam"
		},
		{
			"id": "55.75_-3.25",
			"lat": 55.88,
			"lng": -3.13,
			"places": 2,
			"visits": 2,
			"firstDate": "2018-03-29",
			"lastDate": "2018-03-30",
			"city": "Scotland",
			"country": "GB",
			"display": "Midlothian, Scotland, United Kingdom"
		},
		{
			"id": "53.25_-2.50",
			"lat": 53.38,
			"lng": -2.38,
			"places": 2,
			"visits": 2,
			"firstDate": "2018-04-01",
			"lastDate": "2018-04-01",
			"city": "England",
			"country": "GB",
			"display": "Greater Manchester, England, United Kingdom"
		},
		{
			"id": "10.50_106.75",
			"lat": 10.63,
			"lng": 106.88,
			"places": 2,
			"visits": 2,
			"firstDate": "2018-05-25",
			"lastDate": "2018-08-11",
			"city": "Ho Chi Minh City",
			"country": "VN",
			"display": "Xã Bình Khánh, Ho Chi Minh City, Vietnam"
		},
		{
			"id": "11.00_106.50",
			"lat": 11.13,
			"lng": 106.63,
			"places": 1,
			"visits": 2,
			"firstDate": "2022-07-10",
			"lastDate": "2022-07-10",
			"city": "Ho Chi Minh City",
			"country": "VN",
			"display": "Phường Bến Cát, Ho Chi Minh City, Vietnam"
		},
		{
			"id": "10.00_104.00",
			"lat": 10.13,
			"lng": 104.13,
			"places": 1,
			"visits": 2,
			"firstDate": "2024-02-15",
			"lastDate": "2024-02-15",
			"city": "An Giang Province",
			"country": "VN",
			"display": "An Giang Province, Vietnam"
		},
		{
			"id": "12.25_109.00",
			"lat": 12.38,
			"lng": 109.13,
			"places": 2,
			"visits": 2,
			"firstDate": "2024-08-31",
			"lastDate": "2025-06-02",
			"city": "Khánh Hòa Province",
			"country": "VN",
			"display": "Xã Nam Ninh Hòa, Khánh Hòa Province, Vietnam"
		},
		{
			"id": "11.25_106.00",
			"lat": 11.38,
			"lng": 106.13,
			"places": 2,
			"visits": 2,
			"firstDate": "2025-08-02",
			"lastDate": "2025-08-02",
			"city": "Tây Ninh Province",
			"country": "VN",
			"display": "Phường Bình Minh, Tây Ninh Province, Vietnam"
		},
		{
			"id": "21.25_103.75",
			"lat": 21.38,
			"lng": 103.88,
			"places": 2,
			"visits": 2,
			"firstDate": "2026-02-01",
			"lastDate": "2026-02-01",
			"city": "Chiềng An Ward",
			"country": "VN",
			"display": "Chiềng An Ward, Sơn La Province, Vietnam"
		},
		{
			"id": "10.25_105.50",
			"lat": 10.38,
			"lng": 105.63,
			"places": 1,
			"visits": 1,
			"firstDate": "2014-03-14",
			"lastDate": "2014-03-14",
			"city": "Đồng Tháp Province",
			"country": "VN",
			"display": "Xã Mỹ An Hưng, Đồng Tháp Province, Vietnam"
		},
		{
			"id": "10.25_107.25",
			"lat": 10.38,
			"lng": 107.38,
			"places": 1,
			"visits": 1,
			"firstDate": "2017-11-25",
			"lastDate": "2017-11-25",
			"city": "Ho Chi Minh City",
			"country": "VN",
			"display": "Ho Chi Minh City, Vietnam"
		},
		{
			"id": "10.50_107.00",
			"lat": 10.63,
			"lng": 107.13,
			"places": 1,
			"visits": 1,
			"firstDate": "2017-11-26",
			"lastDate": "2017-11-26",
			"city": "Ho Chi Minh City",
			"country": "VN",
			"display": "Phường Tân Thành, Ho Chi Minh City, Vietnam"
		},
		{
			"id": "10.75_106.25",
			"lat": 10.88,
			"lng": 106.38,
			"places": 1,
			"visits": 1,
			"firstDate": "2017-12-03",
			"lastDate": "2017-12-03",
			"city": "Tây Ninh Province",
			"country": "VN",
			"display": "Xã Hòa Khánh, Tây Ninh Province, Vietnam"
		},
		{
			"id": "10.50_107.50",
			"lat": 10.63,
			"lng": 107.63,
			"places": 1,
			"visits": 1,
			"firstDate": "2018-02-19",
			"lastDate": "2018-02-19",
			"city": "Lâm Đồng Province",
			"country": "VN",
			"display": "Xã Sơn Mỹ, Lâm Đồng Province, Vietnam"
		},
		{
			"id": "10.50_107.75",
			"lat": 10.63,
			"lng": 107.88,
			"places": 1,
			"visits": 1,
			"firstDate": "2018-02-19",
			"lastDate": "2018-02-19",
			"city": "Lâm Đồng Province",
			"country": "VN",
			"display": "Lâm Đồng Province, Vietnam"
		},
		{
			"id": "11.00_108.25",
			"lat": 11.13,
			"lng": 108.38,
			"places": 1,
			"visits": 1,
			"firstDate": "2018-02-20",
			"lastDate": "2018-02-20",
			"city": "Lâm Đồng Province",
			"country": "VN",
			"display": "Xã Hòa Thắng, Lâm Đồng Province, Vietnam"
		},
		{
			"id": "11.25_108.50",
			"lat": 11.38,
			"lng": 108.63,
			"places": 1,
			"visits": 1,
			"firstDate": "2018-02-21",
			"lastDate": "2018-02-21",
			"city": "Lâm Đồng Province",
			"country": "VN",
			"display": "Xã Tuy Phong, Lâm Đồng Province, Vietnam"
		},
		{
			"id": "51.25_-2.50",
			"lat": 51.38,
			"lng": -2.38,
			"places": 1,
			"visits": 1,
			"firstDate": "2018-03-28",
			"lastDate": "2018-03-28",
			"city": "England",
			"country": "GB",
			"display": "Bath and North East Somerset, West of England, England, United Kingdom"
		},
		{
			"id": "51.25_-0.25",
			"lat": 51.38,
			"lng": -0.13,
			"places": 1,
			"visits": 1,
			"firstDate": "2018-03-28",
			"lastDate": "2018-03-28",
			"city": "Greater London",
			"country": "GB",
			"display": "Greater London, England, United Kingdom"
		},
		{
			"id": "40.00_116.50",
			"lat": 40.13,
			"lng": 116.63,
			"places": 1,
			"visits": 1,
			"firstDate": "2018-04-04",
			"lastDate": "2018-04-04",
			"city": "Shunyi District",
			"country": "CN",
			"display": "Shunyi District, Beijing, China"
		},
		{
			"id": "9.00_105.00",
			"lat": 9.13,
			"lng": 105.13,
			"places": 1,
			"visits": 1,
			"firstDate": "2018-09-02",
			"lastDate": "2018-09-02",
			"city": "Cà Mau Province",
			"country": "VN",
			"display": "Xã Lương Thế Trân, Cà Mau Province, Vietnam"
		},
		{
			"id": "8.75_104.75",
			"lat": 8.88,
			"lng": 104.88,
			"places": 1,
			"visits": 1,
			"firstDate": "2018-09-03",
			"lastDate": "2018-09-03",
			"city": "Cà Mau Province",
			"country": "VN",
			"display": "Xã Phú Tân, Cà Mau Province, Vietnam"
		},
		{
			"id": "8.75_105.00",
			"lat": 8.88,
			"lng": 105.13,
			"places": 1,
			"visits": 1,
			"firstDate": "2018-09-04",
			"lastDate": "2018-09-04",
			"city": "Cà Mau Province",
			"country": "VN",
			"display": "Xã Thanh Tùng, Cà Mau Province, Vietnam"
		},
		{
			"id": "10.50_106.00",
			"lat": 10.63,
			"lng": 106.13,
			"places": 1,
			"visits": 1,
			"firstDate": "2018-10-28",
			"lastDate": "2018-10-28",
			"city": "Xã Thạnh Hóa",
			"country": "VN",
			"display": "Xã Thạnh Hóa, Tây Ninh Province, Vietnam"
		},
		{
			"id": "10.00_106.00",
			"lat": 10.13,
			"lng": 106.13,
			"places": 1,
			"visits": 1,
			"firstDate": "2024-02-12",
			"lastDate": "2024-02-12",
			"city": "Vĩnh Long Province",
			"country": "VN",
			"display": "Xã Trung Hiệp, Vĩnh Long Province, Vietnam"
		},
		{
			"id": "9.75_104.00",
			"lat": 9.88,
			"lng": 104.13,
			"places": 1,
			"visits": 1,
			"firstDate": "2024-02-15",
			"lastDate": "2024-02-15",
			"city": "An Giang Province",
			"country": "VN",
			"display": "An Giang Province, Vietnam"
		},
		{
			"id": "10.50_104.75",
			"lat": 10.63,
			"lng": 104.88,
			"places": 1,
			"visits": 1,
			"firstDate": "2025-02-22",
			"lastDate": "2025-02-22",
			"city": "Takeo",
			"country": "KH",
			"display": "Kiri Vong, Takeo, Cambodia"
		},
		{
			"id": "10.75_107.00",
			"lat": 10.88,
			"lng": 107.13,
			"places": 1,
			"visits": 1,
			"firstDate": "2025-02-25",
			"lastDate": "2025-02-25",
			"city": "Đồng Nai City",
			"country": "VN",
			"display": "Xã Xuân Quế, Đồng Nai City, Vietnam"
		},
		{
			"id": "11.25_107.25",
			"lat": 11.38,
			"lng": 107.38,
			"places": 1,
			"visits": 1,
			"firstDate": "2025-02-25",
			"lastDate": "2025-02-25",
			"city": "Đồng Nai City",
			"country": "VN",
			"display": "Xã Tà Lài, Đồng Nai City, Vietnam"
		},
		{
			"id": "11.50_108.75",
			"lat": 11.63,
			"lng": 108.88,
			"places": 1,
			"visits": 1,
			"firstDate": "2025-04-30",
			"lastDate": "2025-04-30",
			"city": "Phan Rang – Tháp Chàm",
			"country": "VN",
			"display": "Phường Đô Vinh, Phan Rang – Tháp Chàm, Khánh Hòa Province, Vietnam"
		},
		{
			"id": "2.50_101.50",
			"lat": 2.63,
			"lng": 101.63,
			"places": 1,
			"visits": 1,
			"firstDate": "2025-08-06",
			"lastDate": "2025-08-06",
			"city": "Selangor",
			"country": "MY",
			"display": "Selangor, Malaysia"
		},
		{
			"id": "3.00_101.50",
			"lat": 3.13,
			"lng": 101.63,
			"places": 1,
			"visits": 1,
			"firstDate": "2025-08-06",
			"lastDate": "2025-08-06",
			"city": "Selangor",
			"country": "MY",
			"display": "Petaling, Selangor, Malaysia"
		},
		{
			"id": "12.00_108.25",
			"lat": 12.13,
			"lng": 108.38,
			"places": 1,
			"visits": 1,
			"firstDate": "2025-08-30",
			"lastDate": "2025-08-30",
			"city": "Lâm Đồng Province",
			"country": "VN",
			"display": "Xã Đam Rông 4, Lâm Đồng Province, Vietnam"
		},
		{
			"id": "12.00_108.50",
			"lat": 12.13,
			"lng": 108.63,
			"places": 1,
			"visits": 1,
			"firstDate": "2025-08-31",
			"lastDate": "2025-08-31",
			"city": "Lâm Đồng Province",
			"country": "VN",
			"display": "Xã Lạc Dương, Lâm Đồng Province, Vietnam"
		},
		{
			"id": "21.00_104.00",
			"lat": 21.13,
			"lng": 104.13,
			"places": 1,
			"visits": 1,
			"firstDate": "2026-01-31",
			"lastDate": "2026-01-31",
			"city": "Sơn La Province",
			"country": "VN",
			"display": "Mai Sơn Commune, Sơn La Province, Vietnam"
		},
		{
			"id": "10.50_106.25",
			"lat": 10.63,
			"lng": 106.38,
			"places": 1,
			"visits": 1,
			"firstDate": "2026-02-16",
			"lastDate": "2026-02-16",
			"city": "Thu Thua",
			"country": "VN",
			"display": "Thu Thua, Tây Ninh Province, Vietnam"
		},
		{
			"id": "20.75_105.75",
			"lat": 20.88,
			"lng": 105.88,
			"places": 1,
			"visits": 1,
			"firstDate": "2026-03-11",
			"lastDate": "2026-03-11",
			"city": "Hà Nội",
			"country": "VN",
			"display": "Hong Van Commune, Hà Nội, Vietnam"
		}
	]
}
